[{"unit":{"unitID":"1","isActive":"1","name":"1081 Avondale Road  South Euclid OH 44121 - 1081 Avondale Road","address":"1081 Avondale Road","streetNumber":"1081","streetName":"Avondale Road","address2":null,"city":"South Euclid","stateID":"OH","postalCode":"44121","latitude":"41.53071660","longitude":"-81.53114640","rent":"1175.00","deposit":"1175.00","size":"1613","beds":"3","fullBaths":"1","halfBaths":"1","leaseID":"97","isVacant":"0","dateTimeCreated":"2024-07-08 18:01:53","dateTimeModified":"2025-05-23 00:18:24"},"property":{"propertyID":"1","propertyTypeID":"1","isMultiUnit":"0","isActive":"1","name":"1081 Avondale Road  South Euclid OH 44121 - 1081 Avondale Road","countryID":"US","address":"1081 Avondale Road","streetNumber":"1081","streetName":"Avondale Road","address2":null,"city":"South Euclid","stateID":"OH","postalCode":"44121","latitude":"41.53071660","longitude":"-81.53114640","reserveAmount":"0.00"}},{"unit":{"unitID":"2","isActive":"1","name":"11216 McCracken Road  Garfield Heights OH 44125 - 11216 McCracken Road","address":"11216 McCracken Road","streetNumber":"11216","streetName":"McCracken Road","address2":null,"city":"Garfield Heights","stateID":"OH","postalCode":"44125","latitude":"41.42220290","longitude":"-81.60588570","rent":"1147.00","deposit":"1295.00","size":"1308","beds":"3","fullBaths":"1","halfBaths":"0","leaseID":"8","isVacant":"0","dateTimeCreated":"2024-07-08 18:01:53","dateTimeModified":"2025-06-02 16:24:21"},"property":{"propertyID":"2","propertyTypeID":"1","isMultiUnit":"0","isActive":"1","name":"11216 McCracken Road  Garfield Heights OH 44125 - 11216 McCracken Road","countryID":"US","address":"11216 McCracken Road","streetNumber":"11216","streetName":"McCracken Road","address2":null,"city":"Garfield Heights","stateID":"OH","postalCode":"44125","latitude":"41.42220290","longitude":"-81.60588570","reserveAmount":"0.00"}},{"unit":{"unitID":"3","isActive":"0","name":"12918 Rockside Road","address":"12918 Rockside Road","streetNumber":"12918","streetName":"Rockside Road","address2":null,"city":"Garfield Heights","stateID":"OH","postalCode":"44125","latitude":"41.40098240","longitude":"-81.59267240","rent":"0.00","deposit":"0.00","size":null,"beds":"3","fullBaths":"1","halfBaths":"0","leaseID":null,"isVacant":"1","dateTimeCreated":"2024-07-08 18:01:53","dateTimeModified":"2025-02-14 15:46:59"},"property":{"propertyID":"4","propertyTypeID":"1","isMultiUnit":"0","isActive":"0","name":"12918 Rockside Road","countryID":"US","address":"12918 Rockside Road","streetNumber":"12918","streetName":"Rockside Road","address2":null,"city":"Garfield Heights","stateID":"OH","postalCode":"44125","latitude":"41.40098240","longitude":"-81.59267240","reserveAmount":"0.00"}},{"unit":{"unitID":"4","isActive":"0","name":"14117 Cranwood Park Boulevard","address":"14117 Cranwood Park Boulevard","streetNumber":"14117","streetName":"Cranwood Park Boulevard","address2":null,"city":"Garfield Heights","stateID":"OH","postalCode":"44125","latitude":"41.43363200","longitude":"-81.58319500","rent":"0.00","deposit":"0.00","size":null,"beds":"4","fullBaths":"1","halfBaths":"0","leaseID":null,"isVacant":"1","dateTimeCreated":"2024-07-08 18:01:53","dateTimeModified":"2025-02-19 15:17:49"},"property":{"propertyID":"5","propertyTypeID":"1","isMultiUnit":"0","isActive":"0","name":"14117 Cranwood Park Boulevard","countryID":"US","address":"14117 Cranwood Park Boulevard","streetNumber":"14117","streetName":"Cranwood Park Boulevard","address2":null,"city":"Garfield Heights","stateID":"OH","postalCode":"44125","latitude":"41.43363200","longitude":"-81.58319500","reserveAmount":"0.00"}},{"unit":{"unitID":"5","isActive":"0","name":"1525 East 254th Street","address":"1525 East 254th Street","streetNumber":"1525","streetName":"East 254th Street","address2":null,"city":"Euclid","stateID":"OH","postalCode":"44117","latitude":"41.58656770","longitude":"-81.50667510","rent":"1150.00","deposit":"0.00","size":"864","beds":"2","fullBaths":"1","halfBaths":"0","leaseID":null,"isVacant":"1","dateTimeCreated":"2024-07-08 18:01:53","dateTimeModified":"2025-02-14 16:20:34"},"property":{"propertyID":"6","propertyTypeID":"1","isMultiUnit":"0","isActive":"0","name":"1525 East 254th Street","countryID":"US","address":"1525 East 254th Street","streetNumber":"1525","streetName":"East 254th Street","address2":null,"city":"Euclid","stateID":"OH","postalCode":"44117","latitude":"41.58656770","longitude":"-81.50667510","reserveAmount":"0.00"}},{"unit":{"unitID":"6","isActive":"0","name":"15401 Grovewood Avenue","address":"15401 Grovewood Avenue","streetNumber":"15401","streetName":"Grovewood Avenue","address2":null,"city":"Cleveland","stateID":"OH","postalCode":"44110","latitude":"41.57606970","longitude":"-81.57344660","rent":"1200.00","deposit":"1200.00","size":"1458","beds":"4","fullBaths":"1","halfBaths":"0","leaseID":null,"isVacant":"1","dateTimeCreated":"2024-07-08 18:01:54","dateTimeModified":"2025-02-14 19:02:52"},"property":{"propertyID":"7","propertyTypeID":"1","isMultiUnit":"0","isActive":"0","name":"15401 Grovewood Avenue","countryID":"US","address":"15401 Grovewood Avenue","streetNumber":"15401","streetName":"Grovewood Avenue","address2":null,"city":"Cleveland","stateID":"OH","postalCode":"44110","latitude":"41.57606970","longitude":"-81.57344660","reserveAmount":"0.00"}},{"unit":{"unitID":"7","isActive":"0","name":"21400 Naumann Avenue","address":"21400 Naumann Avenue","streetNumber":"21400","streetName":"Naumann Avenue","address2":null,"city":"Euclid","stateID":"OH","postalCode":"44123","latitude":"41.59250000","longitude":"-81.53142190","rent":"0.00","deposit":"0.00","size":null,"beds":"2","fullBaths":"1","halfBaths":"0","leaseID":null,"isVacant":"1","dateTimeCreated":"2024-07-08 18:01:54","dateTimeModified":"2025-02-14 16:05:55"},"property":{"propertyID":"8","propertyTypeID":"1","isMultiUnit":"0","isActive":"0","name":"21400 Naumann Avenue","countryID":"US","address":"21400 Naumann Avenue","streetNumber":"21400","streetName":"Naumann Avenue","address2":null,"city":"Euclid","stateID":"OH","postalCode":"44123","latitude":"41.59250000","longitude":"-81.53142190","reserveAmount":"0.00"}},{"unit":{"unitID":"8","isActive":"0","name":"25534 Tungsten Rd","address":"25534 Tungsten Road","streetNumber":"25534","streetName":"Tungsten Road","address2":null,"city":"Euclid","stateID":"OH","postalCode":"44132","latitude":"41.59013370","longitude":"-81.50687490","rent":"0.00","deposit":"0.00","size":null,"beds":"2","fullBaths":"1","halfBaths":"0","leaseID":null,"isVacant":"1","dateTimeCreated":"2024-07-08 18:01:54","dateTimeModified":"2025-02-14 16:11:19"},"property":{"propertyID":"9","propertyTypeID":"1","isMultiUnit":"0","isActive":"0","name":"25534 Tungsten Rd","countryID":"US","address":"25534 Tungsten Road","streetNumber":"25534","streetName":"Tungsten Road","address2":null,"city":"Euclid","stateID":"OH","postalCode":"44132","latitude":"41.59013370","longitude":"-81.50687490","reserveAmount":"0.00"}},{"unit":{"unitID":"9","isActive":"0","name":"25551 Tungsten Rd","address":"25551 Tungsten Road","streetNumber":"25551","streetName":"Tungsten Road","address2":null,"city":"Euclid","stateID":"OH","postalCode":"44132","latitude":"41.59063960","longitude":"-81.50681390","rent":"0.00","deposit":"0.00","size":null,"beds":"2","fullBaths":"1","halfBaths":"0","leaseID":null,"isVacant":"1","dateTimeCreated":"2024-07-08 18:01:54","dateTimeModified":"2025-02-14 15:42:02"},"property":{"propertyID":"10","propertyTypeID":"1","isMultiUnit":"0","isActive":"0","name":"25551 Tungsten Rd","countryID":"US","address":"25551 Tungsten Road","streetNumber":"25551","streetName":"Tungsten Road","address2":null,"city":"Euclid","stateID":"OH","postalCode":"44132","latitude":"41.59063960","longitude":"-81.50681390","reserveAmount":"0.00"}},{"unit":{"unitID":"10","isActive":"0","name":"15000 Krems Avenue","address":"15000 Krems Avenue","streetNumber":"15000","streetName":"Krems Avenue","address2":null,"city":"Maple Heights","stateID":"OH","postalCode":"44137","latitude":"41.40652160","longitude":"-81.57688190","rent":"1500.00","deposit":"1500.00","size":"1270","beds":"3","fullBaths":"1","halfBaths":"0","leaseID":null,"isVacant":"1","dateTimeCreated":"2024-07-08 18:01:54","dateTimeModified":"2025-02-14 15:59:50"},"property":{"propertyID":"11","propertyTypeID":"1","isMultiUnit":"0","isActive":"0","name":"15000 Krems Avenue","countryID":"US","address":"15000 Krems Avenue","streetNumber":"15000","streetName":"Krems Avenue","address2":null,"city":"Maple Heights","stateID":"OH","postalCode":"44137","latitude":"41.40652160","longitude":"-81.57688190","reserveAmount":"0.00"}},{"unit":{"unitID":"11","isActive":"1","name":"3050 Yorkshire Road  Cleveland Heights OH 44118 - 3050 Yorkshire Road","address":"3050 Yorkshire Road","streetNumber":"3050","streetName":"Yorkshire Road","address2":null,"city":"Cleveland Heights","stateID":"OH","postalCode":"44118","latitude":"41.50398740","longitude":"-81.57081850","rent":"1595.00","deposit":"0.00","size":"1500","beds":"3","fullBaths":"1","halfBaths":"0","leaseID":"253","isVacant":"0","dateTimeCreated":"2024-07-08 18:01:54","dateTimeModified":"2025-06-02 12:43:19"},"property":{"propertyID":"12","propertyTypeID":"1","isMultiUnit":"0","isActive":"1","name":"3050 Yorkshire Road  Cleveland Heights OH 44118 - 3050 Yorkshire Road","countryID":"US","address":"3050 Yorkshire Road","streetNumber":"3050","streetName":"Yorkshire Road","address2":null,"city":"Cleveland Heights","stateID":"OH","postalCode":"44118","latitude":"41.50398740","longitude":"-81.57081850","reserveAmount":"0.00"}},{"unit":{"unitID":"12","isActive":"1","name":"17300 Mapleboro Avenue  Maple Heights OH 44137 - 17300 Mapleboro Avenue","address":"17300 Mapleboro Avenue","streetNumber":"17300","streetName":"Mapleboro Avenue","address2":null,"city":"Maple Heights","stateID":"OH","postalCode":"44137","latitude":"41.41351900","longitude":"-81.55854080","rent":"0.00","deposit":"0.00","size":"939","beds":"3","fullBaths":"1","halfBaths":"1","leaseID":"44","isVacant":"0","dateTimeCreated":"2024-07-08 18:01:54","dateTimeModified":"2025-04-24 13:51:25"},"property":{"propertyID":"14","propertyTypeID":"5","isMultiUnit":"0","isActive":"1","name":"17300 Mapleboro Avenue  Maple Heights OH 44137 - 17300 Mapleboro Avenue","countryID":"US","address":"17300 Mapleboro Avenue","streetNumber":"17300","streetName":"Mapleboro Avenue","address2":null,"city":"Maple Heights","stateID":"OH","postalCode":"44137","latitude":"41.41351900","longitude":"-81.55854080","reserveAmount":"0.00"}},{"unit":{"unitID":"13","isActive":"1","name":"1446 East 14th Street  Cleveland OH 44114 - 1446 East 14th Street","address":"1446 East 14th Street","streetNumber":"1446","streetName":"East 14th Street","address2":null,"city":"Cleveland","stateID":"OH","postalCode":"44114","latitude":"41.50473000","longitude":"-81.68483400","rent":"2950.00","deposit":"2950.00","size":"2120","beds":"3","fullBaths":"2","halfBaths":"1","leaseID":"41","isVacant":"0","dateTimeCreated":"2024-07-08 18:01:55","dateTimeModified":"2025-05-22 14:38:51"},"property":{"propertyID":"18","propertyTypeID":"1","isMultiUnit":"0","isActive":"1","name":"1446 East 14th Street  Cleveland OH 44114 - 1446 East 14th Street","countryID":"US","address":"1446 East 14th Street","streetNumber":"1446","streetName":"East 14th Street","address2":null,"city":"Cleveland","stateID":"OH","postalCode":"44114","latitude":"41.50473000","longitude":"-81.68483400","reserveAmount":"0.00"}},{"unit":{"unitID":"14","isActive":"1","name":"320 East 246th Street  Euclid OH 44123 - 320 East 246th Street","address":"320 East 246th Street","streetNumber":"320","streetName":"East 246th Street","address2":null,"city":"Euclid","stateID":"OH","postalCode":"44123","latitude":"41.61365960","longitude":"-81.51187940","rent":"899.00","deposit":"900.00","size":"1114","beds":"3","fullBaths":"1","halfBaths":"0","leaseID":"132","isVacant":"0","dateTimeCreated":"2024-07-08 18:01:55","dateTimeModified":"2025-05-19 16:34:08"},"property":{"propertyID":"19","propertyTypeID":"1","isMultiUnit":"0","isActive":"1","name":"320 East 246th Street  Euclid OH 44123 - 320 East 246th Street","countryID":"US","address":"320 East 246th Street","streetNumber":"320","streetName":"East 246th Street","address2":null,"city":"Euclid","stateID":"OH","postalCode":"44123","latitude":"41.61365960","longitude":"-81.51187940","reserveAmount":"0.00"}},{"unit":{"unitID":"15","isActive":"1","name":"2080 West 103rd Street  Cleveland OH 44102 - 2080 West 103rd Street","address":"2080 West 103rd Street","streetNumber":"2080","streetName":"West 103rd Street","address2":null,"city":"Cleveland","stateID":"OH","postalCode":"44102","latitude":"41.47465930","longitude":"-81.75705410","rent":"0.00","deposit":"0.00","size":null,"beds":"4","fullBaths":"2","halfBaths":"0","leaseID":"128","isVacant":"0","dateTimeCreated":"2024-07-08 18:01:55","dateTimeModified":"2025-05-30 02:12:31"},"property":{"propertyID":"20","propertyTypeID":"1","isMultiUnit":"0","isActive":"1","name":"2080 West 103rd Street  Cleveland OH 44102 - 2080 West 103rd Street","countryID":"US","address":"2080 West 103rd Street","streetNumber":"2080","streetName":"West 103rd Street","address2":null,"city":"Cleveland","stateID":"OH","postalCode":"44102","latitude":"41.47465930","longitude":"-81.75705410","reserveAmount":"0.00"}},{"unit":{"unitID":"16","isActive":"1","name":"3270 Higley Road","address":"3270 Higley Road","streetNumber":"3270","streetName":"Higley Road","address2":null,"city":"Rocky River","stateID":"OH","postalCode":"44116","latitude":"41.45633650","longitude":"-81.86486700","rent":"2600.00","deposit":"2600.00","size":"1878","beds":"3","fullBaths":"2","halfBaths":"0","leaseID":"26","isVacant":"0","dateTimeCreated":"2024-07-08 18:01:55","dateTimeModified":"2025-04-11 12:39:01"},"property":{"propertyID":"21","propertyTypeID":"1","isMultiUnit":"0","isActive":"1","name":"3270 Higley Road","countryID":"US","address":"3270 Higley Road","streetNumber":"3270","streetName":"Higley Road","address2":null,"city":"Rocky River","stateID":"OH","postalCode":"44116","latitude":"41.45633650","longitude":"-81.86486700","reserveAmount":"0.00"}},{"unit":{"unitID":"17","isActive":"1","name":"2010 East 221st Street  Euclid OH 44117 - 2010 East 221st Street","address":"2010 East 221st Street","streetNumber":"2010","streetName":"East 221st Street","address2":null,"city":"Euclid","stateID":"OH","postalCode":"44117","latitude":"41.56570300","longitude":"-81.52755220","rent":"1500.00","deposit":"1500.00","size":"1577","beds":"3","fullBaths":"1","halfBaths":"1","leaseID":"369","isVacant":"0","dateTimeCreated":"2024-07-08 18:01:56","dateTimeModified":"2025-05-27 15:04:15"},"property":{"propertyID":"23","propertyTypeID":"1","isMultiUnit":"0","isActive":"1","name":"2010 East 221st Street  Euclid OH 44117 - 2010 East 221st Street","countryID":"US","address":"2010 East 221st Street","streetNumber":"2010","streetName":"East 221st Street","address2":null,"city":"Euclid","stateID":"OH","postalCode":"44117","latitude":"41.56570300","longitude":"-81.52755220","reserveAmount":"0.00"}},{"unit":{"unitID":"18","isActive":"1","name":"7721 West Ridge Road  Elyria OH 44035 - 7721 West Ridge Road  Elyria OH 44035 - 7721 West Ridge Road","address":"7721 West Ridge Road","streetNumber":"7721","streetName":"West Ridge Road","address2":null,"city":"Elyria","stateID":"OH","postalCode":"44035","latitude":"41.38377360","longitude":"-82.16403800","rent":"0.00","deposit":"0.00","size":null,"beds":"0","fullBaths":"0","halfBaths":"0","leaseID":null,"isVacant":"1","dateTimeCreated":"2024-07-08 18:01:56","dateTimeModified":"2025-05-30 18:31:44"},"property":{"propertyID":"24","propertyTypeID":"1","isMultiUnit":"0","isActive":"1","name":"7721 West Ridge Road  Elyria OH 44035 - 7721 West Ridge Road  Elyria OH 44035 - 7721 West Ridge Road","countryID":"US","address":"7721 West Ridge Road","streetNumber":"7721","streetName":"West Ridge Road","address2":null,"city":"Elyria","stateID":"OH","postalCode":"44035","latitude":"41.38377360","longitude":"-82.16403800","reserveAmount":"0.00"}},{"unit":{"unitID":"19","isActive":"1","name":"12013 Puritan Avenue  Cleveland OH 44105 - 12013 Puritan Avenue","address":"12013 Puritan Avenue","streetNumber":"12013","streetName":"Puritan Avenue","address2":null,"city":"Cleveland","stateID":"OH","postalCode":"44105","latitude":"41.44185050","longitude":"-81.59840130","rent":"750.00","deposit":"0.00","size":null,"beds":"3","fullBaths":"1","halfBaths":"0","leaseID":"147","isVacant":"0","dateTimeCreated":"2024-07-08 18:01:56","dateTimeModified":"2025-05-21 16:06:57"},"property":{"propertyID":"25","propertyTypeID":"1","isMultiUnit":"0","isActive":"1","name":"12013 Puritan Avenue  Cleveland OH 44105 - 12013 Puritan Avenue","countryID":"US","address":"12013 Puritan Avenue","streetNumber":"12013","streetName":"Puritan Avenue","address2":null,"city":"Cleveland","stateID":"OH","postalCode":"44105","latitude":"41.44185050","longitude":"-81.59840130","reserveAmount":"0.00"}},{"unit":{"unitID":"20","isActive":"1","name":"18607 Kildeer Avenue  Cleveland OH 44119 - 18607 Kildeer","address":"18607 Kildeer Avenue","streetNumber":"18607","streetName":"Kildeer Avenue","address2":null,"city":"Cleveland","stateID":"OH","postalCode":"44119","latitude":"41.58532970","longitude":"-81.54878310","rent":"1197.00","deposit":"0.00","size":"1701","beds":"4","fullBaths":"3","halfBaths":"0","leaseID":"197","isVacant":"0","dateTimeCreated":"2024-07-08 18:01:56","dateTimeModified":"2025-05-06 00:12:25"},"property":{"propertyID":"26","propertyTypeID":"1","isMultiUnit":"0","isActive":"1","name":"18607 Kildeer Avenue  Cleveland OH 44119 - 18607 Kildeer","countryID":"US","address":"18607 Kildeer Avenue","streetNumber":"18607","streetName":"Kildeer Avenue","address2":null,"city":"Cleveland","stateID":"OH","postalCode":"44119","latitude":"41.58532970","longitude":"-81.54878310","reserveAmount":"0.00"}},{"unit":{"unitID":"22","isActive":"1","name":"3569 Normandy Road  Shaker Heights OH 44120 - 3569 Normandy Road","address":"3569 Normandy Road","streetNumber":"3569","streetName":"Normandy Road","address2":null,"city":"Shaker Heights","stateID":"OH","postalCode":"44120","latitude":"41.46255010","longitude":"-81.55642120","rent":"1595.00","deposit":"0.00","size":"1568","beds":"4","fullBaths":"1","halfBaths":"1","leaseID":"33","isVacant":"0","dateTimeCreated":"2024-07-08 18:01:56","dateTimeModified":"2025-05-22 13:11:26"},"property":{"propertyID":"28","propertyTypeID":"1","isMultiUnit":"0","isActive":"1","name":"3569 Normandy Road  Shaker Heights OH 44120 - 3569 Normandy Road","countryID":"US","address":"3569 Normandy Road","streetNumber":"3569","streetName":"Normandy Road","address2":null,"city":"Shaker Heights","stateID":"OH","postalCode":"44120","latitude":"41.46255010","longitude":"-81.55642120","reserveAmount":"0.00"}},{"unit":{"unitID":"23","isActive":"1","name":"1064 Woodview Road  Cleveland Heights OH 44121 - 1064 Woodview Road","address":"1064 Woodview Road","streetNumber":"1064","streetName":"Woodview Road","address2":null,"city":"Cleveland Heights","stateID":"OH","postalCode":"44121","latitude":"41.53113450","longitude":"-81.55509260","rent":"1300.00","deposit":"0.00","size":"990","beds":"3","fullBaths":"1","halfBaths":"0","leaseID":"2","isVacant":"0","dateTimeCreated":"2024-07-08 18:01:56","dateTimeModified":"2025-05-24 16:47:52"},"property":{"propertyID":"29","propertyTypeID":"1","isMultiUnit":"0","isActive":"1","name":"1064 Woodview Road  Cleveland Heights OH 44121 - 1064 Woodview Road","countryID":"US","address":"1064 Woodview Road","streetNumber":"1064","streetName":"Woodview Road","address2":null,"city":"Cleveland Heights","stateID":"OH","postalCode":"44121","latitude":"41.53113450","longitude":"-81.55509260","reserveAmount":"0.00"}},{"unit":{"unitID":"24","isActive":"1","name":"24616 Emery Road","address":"24616 Emery Road","streetNumber":"24616","streetName":"Emery Road","address2":null,"city":"Warrensville Heights","stateID":"OH","postalCode":"44128","latitude":"41.43486620","longitude":"-81.50471280","rent":"1600.00","deposit":"1600.00","size":"1000","beds":"4","fullBaths":"2","halfBaths":"0","leaseID":"290","isVacant":"0","dateTimeCreated":"2024-07-08 18:01:57","dateTimeModified":"2025-05-15 15:22:14"},"property":{"propertyID":"30","propertyTypeID":"1","isMultiUnit":"0","isActive":"1","name":"24616 Emery Road","countryID":"US","address":"24616 Emery Road","streetNumber":"24616","streetName":"Emery Road","address2":null,"city":"Warrensville Heights","stateID":"OH","postalCode":"44128","latitude":"41.43486620","longitude":"-81.50471280","reserveAmount":"0.00"}},{"unit":{"unitID":"25","isActive":"0","name":"3311 West Ridgewood Drive","address":"3311 West Ridgewood Drive","streetNumber":"3311","streetName":"West Ridgewood Drive","address2":null,"city":"Parma","stateID":"OH","postalCode":"44134","latitude":"41.38709210","longitude":"-81.70778390","rent":"1850.00","deposit":"1850.00","size":"2456","beds":"3","fullBaths":"2","halfBaths":"0","leaseID":null,"isVacant":"1","dateTimeCreated":"2024-07-08 18:01:57","dateTimeModified":"2024-10-02 18:46:30"},"property":{"propertyID":"31","propertyTypeID":"1","isMultiUnit":"0","isActive":"0","name":"3311 W Ridgewood Dr, Parma, OH 44134","countryID":"US","address":"3311 West Ridgewood Drive","streetNumber":"3311","streetName":"West Ridgewood Drive","address2":null,"city":"Parma","stateID":"OH","postalCode":"44134","latitude":"41.38709210","longitude":"-81.70778390","reserveAmount":"0.00"}},{"unit":{"unitID":"26","isActive":"1","name":"12619 McCracken Road","address":"12619 McCracken Road","streetNumber":"12619","streetName":"McCracken Road","address2":null,"city":"Garfield Heights","stateID":"OH","postalCode":"44125","latitude":"41.42260400","longitude":"-81.59506280","rent":"0.00","deposit":"0.00","size":"1104","beds":"3","fullBaths":"1","halfBaths":"0","leaseID":"191","isVacant":"0","dateTimeCreated":"2024-07-08 18:01:57","dateTimeModified":"2025-06-03 15:44:34"},"property":{"propertyID":"33","propertyTypeID":"1","isMultiUnit":"0","isActive":"1","name":"12619 McCracken Road","countryID":"US","address":"12619 McCracken Road","streetNumber":"12619","streetName":"McCracken Road","address2":null,"city":"Garfield Heights","stateID":"OH","postalCode":"44125","latitude":"41.42260400","longitude":"-81.59506280","reserveAmount":"0.00"}}]